
[
  {
    "id": 1,
    "name": "Amandeep Kaur",
    "tehsil": "Ludhiana West",
    "mobile": "8872924068",
    "circle": "Bagga Khurd, Nurpurbet2",
    "lat": 30.9568,
    "lng": 75.6673
  },
  {
    "id": 2,
    "name": "Ashna",
    "tehsil": "Ludhiana West",
    "mobile": "8557076869",
    "circle": "Kharak",
    "lat": 30.811,
    "lng": 75.7466
  },
  {
    "id": 3,
    "name": "Sandeep Kaur",
    "tehsil": "Ludhiana West",
    "mobile": "8557076869",
    "circle": "Billa",
    "lat": 30.9956,
    "lng": 75.928
  },
  {
    "id": 4,
    "name": "Sharanpreet Singh",
    "tehsil": "Ludhiana West",
    "mobile": "9646807100",
    "circle": "Ayali Khurd, Hambran, Khehrabet1, Khehrabet2",
    "lat": 31.0579,
    "lng": 75.6921
  },
  {
    "id": 5,
    "name": "Harsimran Singh",
    "tehsil": "Ludhiana West",
    "mobile": "9914900522",
    "circle": "Dhandra1, Dhandra2",
    "lat": 30.8698,
    "lng": 75.6692
  },
  {
    "id": 6,
    "name": "Keshav Thakur",
    "tehsil": "Ludhiana West",
    "mobile": "8054277888",
    "circle": "Barewal Awana, Bhatia",
    "lat": 30.7885,
    "lng": 75.8594
  },
  {
    "id": 7,
    "name": "Gurwinder Singh",
    "tehsil": "Ludhiana West",
    "mobile": "8400000356",
    "circle": "Haibowal Khurd, Salempur",
    "lat": 30.7116,
    "lng": 75.7368
  },
  {
    "id": 8,
    "name": "Jashandeep Singh",
    "tehsil": "Ludhiana West",
    "mobile": "9878980591",
    "circle": "Ayali Kalan, Bonkar Dogran",
    "lat": 30.961,
    "lng": 75.8753
  },
  {
    "id": 9,
    "name": "Jagraj Singh",
    "tehsil": "Ludhiana West",
    "mobile": "9780369508",
    "circle": "Noorpurbet1, Loduwal",
    "lat": 30.7892,
    "lng": 75.893
  },
  {
    "id": 10,
    "name": "Dilpreet Singh",
    "tehsil": "Ludhiana West",
    "mobile": "9592649364",
    "circle": "Phullwanwal",
    "lat": 31.0248,
    "lng": 75.6599
  },
  {
    "id": 11,
    "name": "Naresh Kumar",
    "tehsil": "Ludhiana West",
    "mobile": "9988138979",
    "circle": "Baranhara, Jasian, Haibowal Kalan",
    "lat": 31.0233,
    "lng": 75.9366
  },
  {
    "id": 12,
    "name": "Navdeep Singh",
    "tehsil": "Ludhiana West",
    "mobile": "9915859006",
    "circle": "Sunet",
    "lat": 30.8371,
    "lng": 75.7195
  },
  {
    "id": 13,
    "name": "Parminder Singh",
    "tehsil": "Ludhiana West",
    "mobile": "7888366613",
    "circle": "Ladian Kalan",
    "lat": 31.0839,
    "lng": 75.7919
  },
  {
    "id": 14,
    "name": "Pritpal Singh",
    "tehsil": "Ludhiana West",
    "mobile": "9501293995",
    "circle": "Karabara",
    "lat": 30.7381,
    "lng": 75.696
  },
  {
    "id": 15,
    "name": "Mandeep Singh",
    "tehsil": "Ludhiana West",
    "mobile": "9530590034",
    "circle": "Dad",
    "lat": 31.04,
    "lng": 75.8988
  },
  {
    "id": 16,
    "name": "Maninder Singh Bedi",
    "tehsil": "Ludhiana West",
    "mobile": "8054062462",
    "circle": "Tharike",
    "lat": 31.0239,
    "lng": 75.9492
  },
  {
    "id": 17,
    "name": "Rajwinder Kaur",
    "tehsil": "Ludhiana West",
    "mobile": "8847099506",
    "circle": "Allowal",
    "lat": 30.9155,
    "lng": 76.0465
  },
  {
    "id": 18,
    "name": "Lakhbir Singh",
    "tehsil": "Ludhiana West",
    "mobile": "9592766041",
    "circle": "Malakpur",
    "lat": 30.8524,
    "lng": 75.8781
  },
  {
    "id": 19,
    "name": "Deepak Kumar",
    "tehsil": "Ludhiana South",
    "mobile": "9877911170",
    "circle": "Ballowal",
    "lat": 31.0328,
    "lng": 75.9047
  },
  {
    "id": 20,
    "name": "Khushboo",
    "tehsil": "Ludhiana South",
    "mobile": "6283014962",
    "circle": "Gujjarwal-1, Gujjarwal-2",
    "lat": 31.0457,
    "lng": 75.8882
  },
  {
    "id": 21,
    "name": "Prabhdeep Singh",
    "tehsil": "Ludhiana South",
    "mobile": "9914605246",
    "circle": "Dhurkot, Jurahan",
    "lat": 30.9828,
    "lng": 75.6756
  },
  {
    "id": 22,
    "name": "Daljit Singh",
    "tehsil": "Ludhiana South",
    "mobile": "9779778831",
    "circle": "Chappar, Ghungrana",
    "lat": 30.7922,
    "lng": 75.7731
  },
  {
    "id": 23,
    "name": "Ranjit Singh",
    "tehsil": "Ludhiana South",
    "mobile": "7988668154",
    "circle": "Jodhan, lalton kalan -1, lalton kalan-2, Narangwal",
    "lat": 30.7329,
    "lng": 75.7504
  },
  {
    "id": 24,
    "name": "Avtar Singh",
    "tehsil": "Ludhiana South",
    "mobile": "9876013554",
    "circle": "Latala",
    "lat": 30.7414,
    "lng": 75.7685
  },
  {
    "id": 25,
    "name": "Mandeep Singh",
    "tehsil": "Ludhiana South",
    "mobile": "7888500159",
    "circle": "Sarabha",
    "lat": 30.9553,
    "lng": 75.8032
  },
  {
    "id": 26,
    "name": "Manjit Singh",
    "tehsil": "Ludhiana South",
    "mobile": "9592058825",
    "circle": "Sangowal, Mnsooran",
    "lat": 30.8491,
    "lng": 75.7411
  },
  {
    "id": 27,
    "name": "Alam Singh",
    "tehsil": "Ludhiana South",
    "mobile": "9517270527",
    "circle": "Jaspal Bangar, Dollon kalan",
    "lat": 30.8078,
    "lng": 76.032
  },
  {
    "id": 28,
    "name": "Narinder Singh",
    "tehsil": "Ludhiana South",
    "mobile": "9779522395",
    "circle": "Dabba, Dhapai",
    "lat": 30.9602,
    "lng": 75.901
  },
  {
    "id": 29,
    "name": "Gagandeep Singh",
    "tehsil": "Ludhiana South",
    "mobile": "9855097039",
    "circle": "Gill-1,",
    "lat": 30.7695,
    "lng": 75.949
  },
  {
    "id": 30,
    "name": "Chamkaur Singh",
    "tehsil": "Ludhiana South",
    "mobile": "9592203302",
    "circle": "Gill-2",
    "lat": 30.7664,
    "lng": 75.8091
  },
  {
    "id": 31,
    "name": "Renu Bala",
    "tehsil": "Ludhiana South",
    "mobile": "9877726618",
    "circle": "Dhandari Kalan",
    "lat": 31.0968,
    "lng": 75.9133
  },
  {
    "id": 32,
    "name": "Dilpreet Singh",
    "tehsil": "Ludhiana South",
    "mobile": "8284825017",
    "circle": "Aalamgir",
    "lat": 30.9238,
    "lng": 75.9311
  },
  {
    "id": 33,
    "name": "Sadhu Singh",
    "tehsil": "Ludhiana South",
    "mobile": "9814592966",
    "circle": "Sarih, Khanpur",
    "lat": 31.0381,
    "lng": 75.9677
  },
  {
    "id": 34,
    "name": "Baljit Kaur",
    "tehsil": "Ludhiana South",
    "mobile": "9915756557",
    "circle": "Phallewal",
    "lat": 30.7926,
    "lng": 75.6701
  },
  {
    "id": 35,
    "name": "Rajwinder singh",
    "tehsil": "Mullanpur",
    "mobile": "7377200000",
    "circle": "Mullanpur,Pamal,Bhanoor",
    "lat": 30.8272,
    "lng": 75.7644
  },
  {
    "id": 36,
    "name": "Arwinder kaur",
    "tehsil": "Mullanpur",
    "mobile": "9855817493",
    "circle": "Raqba",
    "lat": 30.7854,
    "lng": 76.0345
  },
  {
    "id": 37,
    "name": "Ravinder singh",
    "tehsil": "Mullanpur",
    "mobile": "9877917823",
    "circle": "Baddowal,Khandoor",
    "lat": 31.0515,
    "lng": 75.7832
  },
  {
    "id": 38,
    "name": "Arman singh",
    "tehsil": "Mullanpur",
    "mobile": "9888963521",
    "circle": "Dakha-1,Dhaka-2",
    "lat": 30.9632,
    "lng": 75.8156
  },
  {
    "id": 39,
    "name": "Shone singh",
    "tehsil": "Mullanpur",
    "mobile": "7986415282",
    "circle": "Mandiani",
    "lat": 31.0668,
    "lng": 75.8408
  },
  {
    "id": 40,
    "name": "Balraj singh",
    "tehsil": "Mullanpur",
    "mobile": "7508348949",
    "circle": "Issewal",
    "lat": 30.807,
    "lng": 75.756
  },
  {
    "id": 41,
    "name": "Amandeep kaur",
    "tehsil": "Mullanpur",
    "mobile": "8872924068",
    "circle": "Dewatwal",
    "lat": 30.9255,
    "lng": 75.7624
  },
  {
    "id": 42,
    "name": "Gursewak singh",
    "tehsil": "Mullanpur",
    "mobile": "7888994082",
    "circle": "Jangpur,pandori,",
    "lat": 30.9348,
    "lng": 76.0164
  },
  {
    "id": 43,
    "name": "Tejveer singh",
    "tehsil": "Mullanpur",
    "mobile": "9465165580",
    "circle": "Mohi-1,Mohi2, Braich",
    "lat": 30.8608,
    "lng": 75.745
  },
  {
    "id": 44,
    "name": "Gurpreet kaur",
    "tehsil": "Mullanpur",
    "mobile": "9779220449",
    "circle": "Chak",
    "lat": 31.1,
    "lng": 75.8611
  },
  {
    "id": 45,
    "name": "Dinesh kumar",
    "tehsil": "Mullanpur",
    "mobile": "9803408300",
    "circle": "Birmi",
    "lat": 30.7374,
    "lng": 75.6761
  },
  {
    "id": 46,
    "name": "Ankur Kataria",
    "tehsil": "Ludhiana East",
    "mobile": "9646774440",
    "circle": "Ludhiana",
    "lat": 30.7449,
    "lng": 75.9083
  },
  {
    "id": 47,
    "name": "Baljinder Singh",
    "tehsil": "Ludhiana East",
    "mobile": "94644-55102",
    "circle": "Hawas, Sujatwala, Boothgarh",
    "lat": 31.0178,
    "lng": 75.8262
  },
  {
    "id": 48,
    "name": "Kuldeep Singh",
    "tehsil": "Ludhiana East",
    "mobile": "8437019153",
    "circle": "Kuliewal",
    "lat": 30.7264,
    "lng": 75.8099
  },
  {
    "id": 49,
    "name": "Kapil Kumar",
    "tehsil": "Ludhiana East",
    "mobile": "88377-96097",
    "circle": "Noorwal",
    "lat": 31.0994,
    "lng": 75.8689
  },
  {
    "id": 50,
    "name": "Gurpreet Singh",
    "tehsil": "Ludhiana East",
    "mobile": "97593-00001",
    "circle": "Sherpur Kalan",
    "lat": 31.0894,
    "lng": 76.0016
  },
  {
    "id": 51,
    "name": "Paramjit Singh",
    "tehsil": "Ludhiana East",
    "mobile": "9417604690",
    "circle": "Bhamian Kalan",
    "lat": 30.7056,
    "lng": 75.9456
  },
  {
    "id": 52,
    "name": "Nirmal Singh",
    "tehsil": "Ludhiana East",
    "mobile": "89686-03838",
    "circle": "Mangat adi Khawjk",
    "lat": 30.9737,
    "lng": 75.8721
  },
  {
    "id": 53,
    "name": "Navdeep Singh",
    "tehsil": "Ludhiana East",
    "mobile": "99158-59006",
    "circle": "Tarf Jodhewal , Seera & Kasabaad",
    "lat": 30.8077,
    "lng": 75.9137
  },
  {
    "id": 54,
    "name": "Narinder Singh",
    "tehsil": "Ludhiana East",
    "mobile": "94652-34256",
    "circle": "JamalPur Awana adi Khasi Kalan",
    "lat": 30.7456,
    "lng": 75.8312
  },
  {
    "id": 55,
    "name": "Amit",
    "tehsil": "Ludhiana East",
    "mobile": "78886-05897",
    "circle": "Tarf Sedha",
    "lat": 30.8825,
    "lng": 76.0388
  },
  {
    "id": 56,
    "name": "Noblejit Singh",
    "tehsil": "Ludhiana East",
    "mobile": "8872900059",
    "circle": "Mahaal Bagaat, Tarf Peeru Banda",
    "lat": 31.0513,
    "lng": 75.7627
  },
  {
    "id": 57,
    "name": "Ripdaman Singh",
    "tehsil": "Ludhiana East",
    "mobile": "9876363222",
    "circle": "Mundian Kalan",
    "lat": 30.9012,
    "lng": 75.7288
  },
  {
    "id": 58,
    "name": "Sukhpreet Singh",
    "tehsil": "Sahnewal",
    "mobile": "8146306433",
    "circle": "Bholapur, Dharor",
    "lat": 31.0661,
    "lng": 76.0055
  },
  {
    "id": 59,
    "name": "Simranjit Kaur",
    "tehsil": "Sahnewal",
    "mobile": "6283238650",
    "circle": "Gadowal",
    "lat": 30.8204,
    "lng": 75.9129
  },
  {
    "id": 60,
    "name": "Ripdaman Singh",
    "tehsil": "Sahnewal",
    "mobile": "9876363222",
    "circle": "Jandiali",
    "lat": 30.9446,
    "lng": 75.7184
  },
  {
    "id": 61,
    "name": "Gurwinder Singh",
    "tehsil": "Sahnewal",
    "mobile": "8847315231",
    "circle": "Kanech, heeran",
    "lat": 31.006,
    "lng": 75.8731
  },
  {
    "id": 62,
    "name": "Ashok Kumar",
    "tehsil": "Sahnewal",
    "mobile": "9855727915",
    "circle": "Katani Kalan, sahnewal 2",
    "lat": 31.0125,
    "lng": 75.8694
  },
  {
    "id": 63,
    "name": "Vipan Dhand",
    "tehsil": "Sahnewal",
    "mobile": "9988919783",
    "circle": "Gobindgarh & Kohara",
    "lat": 30.7012,
    "lng": 75.787
  },
  {
    "id": 64,
    "name": "VarinderPal",
    "tehsil": "Sahnewal",
    "mobile": "9613584000",
    "circle": "Pawan",
    "lat": 30.7088,
    "lng": 76.0289
  },
  {
    "id": 65,
    "name": "Indresh Kumar",
    "tehsil": "Sahnewal",
    "mobile": "9877166288",
    "circle": "Sahnewal kalan 1",
    "lat": 31.0525,
    "lng": 75.99
  },
  {
    "id": 66,
    "name": "Harjit Singh",
    "tehsil": "Sahnewal",
    "mobile": "7973260959",
    "circle": "Tibba",
    "lat": 30.824,
    "lng": 75.6805
  },
  {
    "id": 67,
    "name": "Rahul Kumar",
    "tehsil": "Dehlon",
    "mobile": "9653696588",
    "circle": "Pohir, Killa Raipur 1, Killa Raipur 2, Jassowal",
    "lat": 31.0522,
    "lng": 76.0361
  },
  {
    "id": 68,
    "name": "Monu",
    "tehsil": "Dehlon",
    "mobile": "9501008165",
    "circle": "Silon Kalan, Khatra Charam",
    "lat": 30.7353,
    "lng": 75.8517
  },
  {
    "id": 69,
    "name": "Puneet Kumar",
    "tehsil": "Dehlon",
    "mobile": "7889223846",
    "circle": "Rurka",
    "lat": 30.7287,
    "lng": 75.9615
  },
  {
    "id": 70,
    "name": "Surinder Singh",
    "tehsil": "Dehlon",
    "mobile": "9855485780",
    "circle": "Dehlon, Jartauli",
    "lat": 31.0073,
    "lng": 75.7087
  },
  {
    "id": 71,
    "name": "Manish Kumar",
    "tehsil": "Dehlon",
    "mobile": "9878201718",
    "circle": "Kalakh",
    "lat": 30.8911,
    "lng": 75.8772
  },
  {
    "id": 72,
    "name": "Baljeet Kaur",
    "tehsil": "Dehlon",
    "mobile": "8283827300",
    "circle": "Bhutta",
    "lat": 30.807,
    "lng": 76.0063
  },
  {
    "id": 73,
    "name": "Mandeep Kaur",
    "tehsil": "Dehlon",
    "mobile": "8847063983",
    "circle": "Guram",
    "lat": 30.8703,
    "lng": 75.742
  },
  {
    "id": 74,
    "name": "Rajnish Kumari",
    "tehsil": "Dehlon",
    "mobile": "8146562052",
    "circle": "Shankar",
    "lat": 30.9167,
    "lng": 75.9493
  },
  {
    "id": 75,
    "name": "Amrik Singh",
    "tehsil": "Dehlon",
    "mobile": "9815832910",
    "circle": "Gopalpur",
    "lat": 30.7815,
    "lng": 75.782
  },
  {
    "id": 76,
    "name": "Gurwinder Singh",
    "tehsil": "Dehlon",
    "mobile": "9915259501",
    "circle": "Kaind",
    "lat": 31.0991,
    "lng": 75.9173
  },
  {
    "id": 77,
    "name": "Inderjit Singh",
    "tehsil": "Dehlon",
    "mobile": "9914423611",
    "circle": "Butari",
    "lat": 30.8762,
    "lng": 75.8643
  },
  {
    "id": 78,
    "name": "Farook",
    "tehsil": "Dehlon",
    "mobile": "8872933588",
    "circle": "Ghawadi",
    "lat": 30.7494,
    "lng": 75.7472
  },
  {
    "id": 79,
    "name": "Himanshu Singla",
    "tehsil": "Dehlon",
    "mobile": "9592190255",
    "circle": "Aasi Kalan",
    "lat": 30.8362,
    "lng": 75.8926
  },
  {
    "id": 80,
    "name": "Jaspreet Singh",
    "tehsil": "Koomkalan",
    "mobile": "7717276177",
    "circle": "Bhaini Sahib, Bhama Kalan, Bhaini Nathu",
    "lat": 30.793,
    "lng": 75.7454
  },
  {
    "id": 81,
    "name": "Dilbag Singh",
    "tehsil": "Koomkalan",
    "mobile": "8607534180",
    "circle": "Ghumana",
    "lat": 30.7294,
    "lng": 75.9097
  },
  {
    "id": 82,
    "name": "Navdeep",
    "tehsil": "Koomkalan",
    "mobile": "7986182532",
    "circle": "Panjetta, Kadiana Kalan",
    "lat": 30.7926,
    "lng": 76.0195
  },
  {
    "id": 83,
    "name": "Gurpreet Singh",
    "tehsil": "Koomkalan",
    "mobile": "9877360072",
    "circle": "Koom Kalan, Machhian Kalan, Kalas Kalan",
    "lat": 31.0449,
    "lng": 75.6856
  },
  {
    "id": 84,
    "name": "Manjit Singh Saini",
    "tehsil": "Koomkalan",
    "mobile": "9878939526",
    "circle": "Dhanansu, Kot gangu rai, Selkiana, Mattewara, Bhukri Kalan,",
    "lat": 30.7962,
    "lng": 75.9249
  },
  {
    "id": 85,
    "name": "Narinder Singh",
    "tehsil": "Koomkalan",
    "mobile": "7087641603",
    "circle": "Bhagpur, Bora, Chonta",
    "lat": 30.7867,
    "lng": 75.7102
  },
  {
    "id": 86,
    "name": "Amarjit Singh",
    "tehsil": "Koomkalan",
    "mobile": "7009950056",
    "circle": "Miani",
    "lat": 31.0752,
    "lng": 75.8857
  },
  {
    "id": 87,
    "name": "Vaneet Dhawan",
    "tehsil": "Koomkalan",
    "mobile": "8847460308",
    "circle": "Koom Khurd",
    "lat": 30.8901,
    "lng": 75.9711
  },
  {
    "id": 88,
    "name": "Arwinder Kaur",
    "tehsil": "Koomkalan",
    "mobile": "9855708900",
    "circle": "Jonewal",
    "lat": 31.024,
    "lng": 75.7335
  },
  {
    "id": 89,
    "name": "Anjali Saini",
    "tehsil": "Koomkalan",
    "mobile": "9306094635",
    "circle": "Rajoor",
    "lat": 30.7398,
    "lng": 75.8297
  },
  {
    "id": 128,
    "name": "CHAMAN LAL",
    "tehsil": "Samrala",
    "mobile": "77430-55269",
    "circle": "HERRIAN,POONIYA,BALIO,MADPUR,NAGRA",
    "lat": 31.1004,
    "lng": 76.0557
  },
  {
    "id": 129,
    "name": "RENUKA",
    "tehsil": "Samrala",
    "mobile": "99886-08132",
    "circle": "MANUPUR,NILLO KALLAN,LOPO",
    "lat": 30.7303,
    "lng": 75.7426
  },
  {
    "id": 130,
    "name": "BIKRAM KUMAR",
    "tehsil": "Samrala",
    "mobile": "76578-16880",
    "circle": "SIHALA,BAMB",
    "lat": 30.8071,
    "lng": 76.0306
  },
  {
    "id": 131,
    "name": "AMNINDER SINGH",
    "tehsil": "Samrala",
    "mobile": "78148-71116",
    "circle": "BAGLI KALLAN",
    "lat": 31.0533,
    "lng": 76.009
  },
  {
    "id": 132,
    "name": "SIMRANJIT SINGH",
    "tehsil": "Samrala",
    "mobile": "82830-71012",
    "circle": "SHAMASHPUR",
    "lat": 30.8488,
    "lng": 75.7204
  },
  {
    "id": 133,
    "name": "JASVIR KAUR",
    "tehsil": "Samrala",
    "mobile": "76969-93297",
    "circle": "RUPALO",
    "lat": 31.0345,
    "lng": 75.9387
  },
  {
    "id": 134,
    "name": "MANMEET SINGH",
    "tehsil": "Samrala",
    "mobile": "70093-30890",
    "circle": "GARHI TARKHANA,KUBA",
    "lat": 30.9457,
    "lng": 76.0522
  },
  {
    "id": 135,
    "name": "ABHISHEK JAIN",
    "tehsil": "Samrala",
    "mobile": "76006-30005",
    "circle": "GHUNGRALI SIKHAN",
    "lat": 30.9626,
    "lng": 75.6604
  },
  {
    "id": 136,
    "name": "ANIL KUMAR",
    "tehsil": "Samrala",
    "mobile": "81468-35603",
    "circle": "CHAHLA",
    "lat": 31.0278,
    "lng": 75.7771
  },
  {
    "id": 137,
    "name": "AVTAR SINGH",
    "tehsil": "Samrala",
    "mobile": "99885-23006",
    "circle": "MUSHKABAD",
    "lat": 30.9664,
    "lng": 76.0329
  },
  {
    "id": 138,
    "name": "ANMOLJOT SINGH",
    "tehsil": "Samrala",
    "mobile": "70090-08560",
    "circle": "SALODI,LALORI,SAMRALA",
    "lat": 30.7547,
    "lng": 75.7035
  },
  {
    "id": 139,
    "name": "VIKRAM SINGH",
    "tehsil": "Samrala",
    "mobile": "94636-84822",
    "circle": "BONDLI",
    "lat": 30.7438,
    "lng": 75.8786
  },
  {
    "id": 140,
    "name": "GURPREET SINGH",
    "tehsil": "Samrala",
    "mobile": "78888-95071",
    "circle": "KALAAL MAJRA",
    "lat": 30.8099,
    "lng": 75.8992
  },
  {
    "id": 141,
    "name": "RAMANDEEP",
    "tehsil": "Samrala",
    "mobile": "99146-03287",
    "circle": "SEH",
    "lat": 30.988,
    "lng": 75.7387
  },
  {
    "id": 142,
    "name": "AMIT KUMAR",
    "tehsil": "Samrala",
    "mobile": "78886-05897",
    "circle": "UTALA",
    "lat": 30.9547,
    "lng": 75.7629
  },
  {
    "id": 143,
    "name": "MANJINDER SINGH",
    "tehsil": "Samrala",
    "mobile": "95305-95156",
    "circle": "BEHLOLPUR,GHARKHANA,GOSLAN,MANKI",
    "lat": 30.8964,
    "lng": 76.0194
  },
  {
    "id": 144,
    "name": "RUPINDER SINGH",
    "tehsil": "Samrala",
    "mobile": "98776-23967",
    "circle": "KOTALA",
    "lat": 31.0394,
    "lng": 75.6942
  },
  {
    "id": 145,
    "name": "MONIKA SHARMA",
    "tehsil": "Samrala",
    "mobile": "98776-64272",
    "circle": "POWAT1,POWAT2",
    "lat": 30.8704,
    "lng": 75.768
  },
  {
    "id": 146,
    "name": "PARMINDER SINGH",
    "tehsil": "Samrala",
    "mobile": "82838-86138",
    "circle": "SEHJO MAJRA,BILLON",
    "lat": 30.7024,
    "lng": 75.9657
  },
  {
    "id": 147,
    "name": "NITIN KUMAR",
    "tehsil": "Samrala",
    "mobile": "97798-65097",
    "circle": "HEDO",
    "lat": 30.9558,
    "lng": 75.7621
  },
  {
    "id": 148,
    "name": "JASKARAN SINGH",
    "tehsil": "Samrala",
    "mobile": "98141-41098",
    "circle": "KAKRALA KALLA",
    "lat": 30.9975,
    "lng": 75.878
  },
  {
    "id": 149,
    "name": "HARJOT SINGH",
    "tehsil": "Machhiwara",
    "mobile": "78142-55893",
    "circle": "HEDO BAIT",
    "lat": 30.8721,
    "lng": 75.6612
  },
  {
    "id": 150,
    "name": "DIWAKAR MISHRA",
    "tehsil": "Machhiwara",
    "mobile": "88993-85211",
    "circle": "JASSOWAL",
    "lat": 30.7311,
    "lng": 76.0105
  },
  {
    "id": 151,
    "name": "PRABHJOT KAUR",
    "tehsil": "Machhiwara",
    "mobile": "62836-24549",
    "circle": "SHERPUR,MACHHIWARA KHAM",
    "lat": 31.0626,
    "lng": 75.8755
  },
  {
    "id": 152,
    "name": "MANPREET SINGH",
    "tehsil": "Machhiwara",
    "mobile": "81959-63498",
    "circle": "CHHORIAN,HAMBOWAL,MACHHIWARA1,RAHIMABAD KALLAN,NOORPUR",
    "lat": 31.0348,
    "lng": 75.8903
  },
  {
    "id": 153,
    "name": "HARWINDER SINGH",
    "tehsil": "Machhiwara",
    "mobile": "79730-82002",
    "circle": "RAJEWAL JATTAN,FATEHGARH,DOPANA,MACHHIWARA2,SAINSOWAL KALLAN",
    "lat": 30.7602,
    "lng": 75.7083
  },
  {
    "id": 154,
    "name": "HARKIRAT SINGH",
    "tehsil": "Machhiwara",
    "mobile": "72484-20001",
    "circle": "DHANOOR",
    "lat": 30.8243,
    "lng": 76.0169
  },
  {
    "id": 155,
    "name": "PARMINDER SINGH",
    "tehsil": "Machhiwara",
    "mobile": "82838-86138",
    "circle": "JODHWAL,DHULEWAL,LUBHANGARH56,BHATTIAN,GARHI BET,PANJ GARAYIAN",
    "lat": 31.0194,
    "lng": 76.0016
  },
  {
    "id": 156,
    "name": "SURESH SHARMA",
    "tehsil": "Machhiwara",
    "mobile": "89685-04565",
    "circle": "TAKHRA",
    "lat": 31.0606,
    "lng": 75.7413
  },
  {
    "id": 157,
    "name": "Amit Garg",
    "tehsil": "Khanna",
    "mobile": "7009657386",
    "circle": "Jatana, RatanHeri, Ikolaha",
    "lat": 30.8008,
    "lng": 75.6984
  },
  {
    "id": 158,
    "name": "Amritpal Singh",
    "tehsil": "Khanna",
    "mobile": "7986938716",
    "circle": "NarainGarh",
    "lat": 31.013,
    "lng": 76.011
  },
  {
    "id": 159,
    "name": "Amritpal Singh",
    "tehsil": "Khanna",
    "mobile": "7986938716",
    "circle": "Rajewal",
    "lat": 30.8636,
    "lng": 75.9056
  },
  {
    "id": 160,
    "name": "Hardeep Sharma",
    "tehsil": "Khanna",
    "mobile": "9855824931",
    "circle": "Kauri",
    "lat": 30.7628,
    "lng": 76.0293
  },
  {
    "id": 161,
    "name": "Harinder Singh",
    "tehsil": "Khanna",
    "mobile": "9781497832",
    "circle": "BoothGarh",
    "lat": 31.0468,
    "lng": 76.0478
  },
  {
    "id": 162,
    "name": "Harjas",
    "tehsil": "Khanna",
    "mobile": "9781174101",
    "circle": "Isru",
    "lat": 31.0253,
    "lng": 76.0099
  },
  {
    "id": 163,
    "name": "Harsheen Kaur",
    "tehsil": "Khanna",
    "mobile": "7528018760",
    "circle": "Bija, Raipur, Bhadla nicha",
    "lat": 30.7109,
    "lng": 75.9519
  },
  {
    "id": 164,
    "name": "Harwarinder Kaur",
    "tehsil": "Khanna",
    "mobile": "7707994721",
    "circle": "Bhamaddi",
    "lat": 30.8339,
    "lng": 76.0296
  },
  {
    "id": 165,
    "name": "Jagjit Singh",
    "tehsil": "Khanna",
    "mobile": "9815576414",
    "circle": "Khanna kalan, Rasulra",
    "lat": 31.0219,
    "lng": 76.0029
  },
  {
    "id": 166,
    "name": "Kulvir Singh",
    "tehsil": "Khanna",
    "mobile": "9915103957",
    "circle": "Daheru, Jaspalo, Lalheri",
    "lat": 31.0253,
    "lng": 75.764
  },
  {
    "id": 167,
    "name": "Manpreet Kaur",
    "tehsil": "Khanna",
    "mobile": "9592555383",
    "circle": "Chakohi",
    "lat": 31.0159,
    "lng": 75.7005
  },
  {
    "id": 168,
    "name": "Sant Ram",
    "tehsil": "Khanna",
    "mobile": "7889085462",
    "circle": "Nasrali, Rahoun",
    "lat": 31.0499,
    "lng": 76.0007
  },
  {
    "id": 169,
    "name": "Sarabjit Kaur",
    "tehsil": "Khanna",
    "mobile": "9814900217",
    "circle": "Goh",
    "lat": 30.79,
    "lng": 75.9839
  },
  {
    "id": 170,
    "name": "Shrishti Sharma",
    "tehsil": "Khanna",
    "mobile": "9478621260",
    "circle": "Ghungrali",
    "lat": 30.8851,
    "lng": 75.7794
  },
  {
    "id": 171,
    "name": "Sonia Devi",
    "tehsil": "Khanna",
    "mobile": "8699368430",
    "circle": "Jalajan",
    "lat": 31.0191,
    "lng": 75.7483
  },
  {
    "id": 172,
    "name": "Viraj Deep",
    "tehsil": "Khanna",
    "mobile": "9501290055",
    "circle": "Khanna Khurd",
    "lat": 30.7105,
    "lng": 75.7346
  },
  {
    "id": 173,
    "name": "Yogesh Kumar",
    "tehsil": "Khanna",
    "mobile": "9517064066",
    "circle": "Hole, Taunsa",
    "lat": 30.8323,
    "lng": 76.003
  },
  {
    "id": 174,
    "name": "Arashdeep Singh",
    "tehsil": "Payal",
    "mobile": "7837107802",
    "circle": "Jargrai, Maksudra, Lasara, Madanipur,",
    "lat": 31.0878,
    "lng": 75.7689
  },
  {
    "id": 175,
    "name": "Manjinder Singh",
    "tehsil": "Payal",
    "mobile": "9501352652",
    "circle": "Dugri, cheema",
    "lat": 30.9576,
    "lng": 75.8172
  },
  {
    "id": 176,
    "name": "Kuldeep Singh",
    "tehsil": "Payal",
    "mobile": "9888899727",
    "circle": "Daburji,",
    "lat": 31.0935,
    "lng": 75.8718
  },
  {
    "id": 177,
    "name": "Gagandeep",
    "tehsil": "Payal",
    "mobile": "8284008340",
    "circle": "Begowal",
    "lat": 31.0767,
    "lng": 75.7034
  },
  {
    "id": 178,
    "name": "Vikramjit Singh",
    "tehsil": "Payal",
    "mobile": "9478471400",
    "circle": "Ghaloti",
    "lat": 31.0892,
    "lng": 75.7287
  },
  {
    "id": 179,
    "name": "Gurwinderpal",
    "tehsil": "Payal",
    "mobile": "9041830189",
    "circle": "Sihora , Rajgharh",
    "lat": 31.086,
    "lng": 75.7635
  },
  {
    "id": 180,
    "name": "Amandeep Singh",
    "tehsil": "Payal",
    "mobile": "9465378788",
    "circle": "Dhamot 1",
    "lat": 30.7444,
    "lng": 75.8311
  },
  {
    "id": 181,
    "name": "Mani Bansal",
    "tehsil": "Payal",
    "mobile": "7658839758",
    "circle": "Rauni 1, Rauni2",
    "lat": 30.9924,
    "lng": 75.7828
  },
  {
    "id": 182,
    "name": "Birpal Singh",
    "tehsil": "Payal",
    "mobile": "9058703035",
    "circle": "Jandali, jarg 1 and 2",
    "lat": 30.9435,
    "lng": 75.8619
  },
  {
    "id": 183,
    "name": "Surya Singla",
    "tehsil": "Payal",
    "mobile": "8892650002",
    "circle": "Harcha, Doraha,Rara",
    "lat": 30.8551,
    "lng": 75.8879
  },
  {
    "id": 184,
    "name": "Surjeet Singh",
    "tehsil": "Payal",
    "mobile": "9646492843",
    "circle": "Ghudani Khurad, Payal 2, Barmalipur",
    "lat": 30.8029,
    "lng": 75.9408
  },
  {
    "id": 185,
    "name": "Taran Singh",
    "tehsil": "Payal",
    "mobile": "9478434916",
    "circle": "Dhamot 2, Payal 1",
    "lat": 30.7017,
    "lng": 76.0275
  },
  {
    "id": 186,
    "name": "Gurchain Singh",
    "tehsil": "Payal",
    "mobile": "9781583930",
    "circle": "Rampur1, Rampur2",
    "lat": 30.9164,
    "lng": 75.9451
  },
  {
    "id": 187,
    "name": "Gurpreet Singh",
    "tehsil": "Payal",
    "mobile": "9501392623",
    "circle": "Jalla",
    "lat": 30.9978,
    "lng": 75.9256
  },
  {
    "id": 188,
    "name": "Samanjeet Kaur",
    "tehsil": "Payal",
    "mobile": "9646307945",
    "circle": "Majri",
    "lat": 30.8467,
    "lng": 75.6853
  },
  {
    "id": 189,
    "name": "Navdeep Kaur",
    "tehsil": "Payal",
    "mobile": "8729080397",
    "circle": "Ghudani 1,",
    "lat": 30.9667,
    "lng": 75.7894
  },
  {
    "id": 190,
    "name": "Harmanpreet",
    "tehsil": "Payal",
    "mobile": "7380020257",
    "circle": "Aluna miana  Sirthla",
    "lat": 30.8266,
    "lng": 75.9965
  },
  {
    "id": 191,
    "name": "Rajpreet Singh",
    "tehsil": "Payal",
    "mobile": "7973325884",
    "circle": "Bilaspur",
    "lat": 30.9889,
    "lng": 75.7774
  },
  {
    "id": 192,
    "name": "Lovpreet Singh",
    "tehsil": "Payal",
    "mobile": "7009854283",
    "circle": "Buwani",
    "lat": 30.8247,
    "lng": 75.8207
  },
  {
    "id": 193,
    "name": "Arashdeep Singh",
    "tehsil": "Payal",
    "mobile": "9872956651",
    "circle": "Bharthla",
    "lat": 30.862,
    "lng": 75.7756
  },
  {
    "id": 194,
    "name": "Anmol Singh",
    "tehsil": "Payal",
    "mobile": "7973745393",
    "circle": "Ghudani2",
    "lat": 30.7519,
    "lng": 75.8255
  },
  {
    "id": 195,
    "name": "Sharanjeet Singh",
    "tehsil": "Payal",
    "mobile": "8837853052",
    "circle": "Deep Nagar",
    "lat": 31.0771,
    "lng": 75.9282
  },
  {
    "id": 196,
    "name": "Arwinder Singh",
    "tehsil": "Payal",
    "mobile": "7696764341",
    "circle": "Kadho",
    "lat": 31.0621,
    "lng": 75.9035
  },
  {
    "id": 197,
    "name": "Amit Kumar",
    "tehsil": "Maloud",
    "mobile": "9478993735",
    "circle": "maloud rorian , Ramgarh saradaran",
    "lat": 30.8214,
    "lng": 75.8765
  },
  {
    "id": 198,
    "name": "Hanish kumar",
    "tehsil": "Maloud",
    "mobile": "8288808633",
    "circle": "Sihan daud",
    "lat": 30.7012,
    "lng": 75.7721
  },
  {
    "id": 199,
    "name": "Satbeer singh",
    "tehsil": "Maloud",
    "mobile": "7888549714",
    "circle": "kulhar",
    "lat": 30.873,
    "lng": 75.8893
  },
  {
    "id": 200,
    "name": "Sandeep kumar",
    "tehsil": "Maloud",
    "mobile": "9465163690",
    "circle": "Dudhal , hans ,siahar",
    "lat": 30.9629,
    "lng": 75.8433
  },
  {
    "id": 201,
    "name": "Gurjeet singh",
    "tehsil": "Maloud",
    "mobile": "7837695952",
    "circle": "rabbon unchi . kuhali kalan . dhaul kalan",
    "lat": 30.8779,
    "lng": 75.7428
  },
  {
    "id": 202,
    "name": "Karanvir singh",
    "tehsil": "Maloud",
    "mobile": "8196872628",
    "circle": "jhamat",
    "lat": 30.8903,
    "lng": 76.0178
  },
  {
    "id": 203,
    "name": "Paramjit singh",
    "tehsil": "Maloud",
    "mobile": "9501545493",
    "circle": "chomon ,sekha",
    "lat": 31.0194,
    "lng": 75.7252
  },
  {
    "id": 204,
    "name": "Kulveer kaur",
    "tehsil": "Maloud",
    "mobile": "9877312593",
    "circle": "lehal ,sharan majra",
    "lat": 30.7349,
    "lng": 75.8635
  },
  {
    "id": 205,
    "name": "Daljeet kaur",
    "tehsil": "Maloud",
    "mobile": "9781135073",
    "circle": "ber kalan",
    "lat": 30.9542,
    "lng": 75.7914
  },
  {
    "id": 206,
    "name": "Harleen kaur",
    "tehsil": "Maloud",
    "mobile": "8360241221",
    "circle": "shoian",
    "lat": 31.0284,
    "lng": 75.9578
  },
  {
    "id": 207,
    "name": "Amardeep Singh",
    "tehsil": "Raikot",
    "mobile": "9855206334",
    "circle": "Raikot-1,2,3,4,5, Ramgarh Sibia",
    "lat": 30.9701,
    "lng": 75.7472
  },
  {
    "id": 208,
    "name": "Bhupinder Singh",
    "tehsil": "Raikot",
    "mobile": "9878605456",
    "circle": "Pakhowal, Ferurai, Burj Littan",
    "lat": 30.7807,
    "lng": 75.6671
  },
  {
    "id": 209,
    "name": "Jugraj Singh",
    "tehsil": "Raikot",
    "mobile": "9888109092",
    "circle": "Dadhahur",
    "lat": 30.7989,
    "lng": 75.8474
  },
  {
    "id": 210,
    "name": "Fardeep Singh",
    "tehsil": "Raikot",
    "mobile": "9478544318",
    "circle": "Johlan, Binjal",
    "lat": 31.0409,
    "lng": 75.6864
  },
  {
    "id": 211,
    "name": "Paramjjit Kaur",
    "tehsil": "Raikot",
    "mobile": "6280514845",
    "circle": "Nathowal-1,2",
    "lat": 30.8668,
    "lng": 75.9092
  },
  {
    "id": 212,
    "name": "Rupinder Kumar",
    "tehsil": "Raikot",
    "mobile": "9781672035",
    "circle": "Jhoran-1,2",
    "lat": 30.7788,
    "lng": 75.9358
  },
  {
    "id": 213,
    "name": "Sandeep Kumar",
    "tehsil": "Raikot",
    "mobile": "9464904645",
    "circle": "Heran, Talwandi Rai-1,2",
    "lat": 30.8988,
    "lng": 75.7549
  },
  {
    "id": 214,
    "name": "Jaspreet Singh",
    "tehsil": "Raikot",
    "mobile": "7717477143",
    "circle": "Andlu, Rachhin, Bhaini Baringa, Rajoana Kalan",
    "lat": 30.9634,
    "lng": 75.6595
  },
  {
    "id": 215,
    "name": "Mohit Kumar",
    "tehsil": "Raikot",
    "mobile": "9988597703",
    "circle": "Akalgarh",
    "lat": 31.0014,
    "lng": 75.9653
  },
  {
    "id": 216,
    "name": "Jaspreet Kaur",
    "tehsil": "Raikot",
    "mobile": "9914562937",
    "circle": "Gondwal, Dango, Nangal Kalan",
    "lat": 30.7436,
    "lng": 75.8274
  },
  {
    "id": 217,
    "name": "Amanpreet Singh",
    "tehsil": "Raikot",
    "mobile": "9592623558",
    "circle": "Barundi, Hissowal, Aitiana1-2",
    "lat": 30.7714,
    "lng": 76.0405
  },
  {
    "id": 218,
    "name": "Jagbir Singh",
    "tehsil": "Raikot",
    "mobile": "8288835378",
    "circle": "Rajgarh, Bassian-1-2-3,",
    "lat": 30.9082,
    "lng": 75.6774
  },
  {
    "id": 219,
    "name": "Parvesh Kumar",
    "tehsil": "Raikot",
    "mobile": "9592097871",
    "circle": "Maherna Kalan",
    "lat": 30.8007,
    "lng": 75.9966
  },
  {
    "id": 220,
    "name": "Kamalpreet Kaur",
    "tehsil": "Raikot",
    "mobile": "8146483589",
    "circle": "Barmi",
    "lat": 30.8836,
    "lng": 75.9779
  },
  {
    "id": 221,
    "name": "Rajdeep Singh",
    "tehsil": "Raikot",
    "mobile": "9501820018",
    "circle": "Halwara-1,2,3, Sudhar",
    "lat": 30.968,
    "lng": 76.0525
  },
  {
    "id": 222,
    "name": "Komalpreet Singh",
    "tehsil": "Raikot",
    "mobile": "9465100000",
    "circle": "Jatpura",
    "lat": 30.9392,
    "lng": 76.0373
  },
  {
    "id": 223,
    "name": "Mandeep Singh",
    "tehsil": "Raikot",
    "mobile": "6005497639",
    "circle": "Shehbazpura, Jalaldiwal",
    "lat": 31.0576,
    "lng": 75.9024
  },
  {
    "id": 224,
    "name": "Amanpreet Kaur",
    "tehsil": "Raikot",
    "mobile": "9478691394",
    "circle": "Burj Hari Singh",
    "lat": 30.9887,
    "lng": 75.8592
  },
  {
    "id": 225,
    "name": "Jaspinderveer Singh",
    "tehsil": "Raikot",
    "mobile": "7355001000",
    "circle": "Chak Bhai ka",
    "lat": 31.0332,
    "lng": 75.8764
  },
  {
    "id": 226,
    "name": "Bikkar Singh",
    "tehsil": "Raikot",
    "mobile": "9815002710",
    "circle": "Sukhana, Bhaini Drera",
    "lat": 31.0599,
    "lng": 75.9548
  },
  {
    "id": 227,
    "name": "Sourabh Sharma",
    "tehsil": "Raikot",
    "mobile": "7696182395",
    "circle": "Barampur, Kalsian, Lohatbaddi, Toosa, Abbuwal, Leel",
    "lat": 30.8909,
    "lng": 75.761
  }
]
